[
  {
    "id": "1",
    "position": { "lat": 56.739471, "lng": 8.871149 },
    "country": "Denmark",
    "company": "dol-sensors",
    "addressLine_1": "Hedelund 4 Glyngøre",
    "addressLine_2": "7870 Roslev",
    "addressLine_3": "",
    "phone_1": "(+45) 7217 5888",
    "phone_2": "(+45) 7217 5959",
    "email": "mail@dol-sensors.com",
    "draggable": false,
    "visible": true
  },
  {
    "id": "2",
    "position": { "lat": 56.200106, "lng": 10.159627 },
    "country": "Denmark",
    "company": "dol-sensors A/S",
    "addressLine_1": "Agro Food Park 15",
    "addressLine_2": "8200 Aarhus N",
    "addressLine_3": "",
    "phone_1": "(+45) 7217 5888",
    "phone_2": "(+45) 7217 5959",
    "email": "mail@dol-sensors.com",
    "draggable": false,
    "visible": false
  },
  {
    "id": "3",
    "position": { "lat": 60.652373, "lng": 23.141764 },
    "country": "Finland",
    "company": "Triotec OY",
    "addressLine_1": "Tehtaantie",
    "addressLine_2": "SF-31500 Koski TL",
    "addressLine_3": "",
    "phone_1": "(+45) 7217 5888",
    "phone_2": "(+45) 7217 5959",
    "email": "mail@dol-sensors.com",
    "draggable": false,
    "visible": true
  },
  {
    "id": "4",
    "position": { "lat": 60.443182, "lng": 22.328859 },
    "country": "Finland",
    "company": "DAVA Foods",
    "addressLine_1": "Piispanristintie 8",
    "addressLine_2": "SF-20761 Piispanristinti",
    "addressLine_3": "",
    "phone_1": "(+45) 7217 5888",
    "phone_2": "(+45) 7217 5959",
    "email": "mail@dol-sensors.com",
    "draggable": false,
    "visible": true
  },
  {
    "id": "5",
    "position": { "lat": 47.658936, "lng": 15.895501 },
    "country": "Austria",
    "company": "Schropper GmbH",
    "addressLine_1": "Austrasse 35",
    "addressLine_2": "2640 Gloggnitz",
    "addressLine_3": "",
    "phone_1": "(+43) 266383050",
    "phone_2": "(+43) 2663830510",
    "email": "office@schropper.at",
    "draggable": false,
    "visible": true
  },
  {
    "id": "6",
    "position": { "lat": 51.300442, "lng": 5.097699 },
    "country": "Belgium",
    "company": "PVS Oost bvba",
    "addressLine_1": "Hoge Mauw 1325",
    "addressLine_2": "2370 Arendonk",
    "addressLine_3": "",
    "phone_1": "(+32) 493 100353",
    "phone_2": "",
    "email": "joost@pvs-pvs.com",
    "draggable": false,
    "visible": true
  },
  {
    "id": "7",
    "position": { "lat": 50.039910, "lng": 15.569211 },
    "country": "Czech Republic",
    "company": "AGRA-BOHEMIA a.s.",
    "addressLine_1": "Hradecká 1383",
    "addressLine_2": "CZ-53501 Prelouc",
    "addressLine_3": "",
    "phone_1": "(+420) 466 765 111",
    "phone_2": "(+420) 466 672 203",
    "email": "info@agra-bohemia.cz",
    "draggable": false,
    "visible": true
  },
  {
    "id": "8",
    "position": { "lat": 49.488722, "lng": 14.545576 },
    "country": "Czech Republic",
    "company": "FARMTEC a.s.",
    "addressLine_1": "Jistebnice cp. 326",
    "addressLine_2": "391 33 Jistebnice",
    "addressLine_3": "",
    "phone_1": "(+420) 381 208 211",
    "phone_2": "(+420) 381 208 212",
    "email": "farmtec@farmtec.cz",
    "draggable": false,
    "visible": true
  },
  {
    "id": "9",
    "position": { "lat": 53.844862, "lng": 8.685756 },
    "country": "Germany",
    "company": "LAE-Anlagenbau GmbH",
    "addressLine_1": "Altenwalder Chaussee 94-100",
    "addressLine_2": "D-27472 Cuxhaven",
    "addressLine_3": "",
    "phone_1": "(+49) 4721 1050",
    "phone_2": "(+49) 4721 105210",
    "email": "info@lae-cuxhaven.de",
    "draggable": false,
    "visible": true
  },
  {
    "id": "10",
    "position": { "lat": 51.849066, "lng": 8.031921 },
    "country": "Germany",
    "company": "N. Lohmann GmbH",
    "addressLine_1": "Am Fleigendahl",
    "addressLine_2": "59320 Ennigerloh",
    "addressLine_3": "",
    "phone_1": "(+49) 2524 26224-0",
    "phone_2": "(+49) 2524 26224-21",
    "email": "info@n-lohmann.de",
    "draggable": false,
    "visible": true
  },
  {
    "id": "11",
    "position": { "lat": 51.846041, "lng": 4.654987 },
    "country": "Netherlands",
    "company": "Nivotherm B.V.",
    "addressLine_1": "Nijverheidsweg 65",
    "addressLine_2": "NL-3341 LJ Hendrik ido Ambacht",
    "addressLine_3": "",
    "phone_1": "(+31) 7868 17544",
    "phone_2": "(+31) 7868 17477",
    "email": "info@nivotherm.nl",
    "draggable": false,
    "visible": true
  },
  {
    "id": "12",
    "position": { "lat": 58.781005, "lng": 5.624787},
    "country": "Norway",
    "company": "Felleskjøpet Rogaland Agder",
    "addressLine_1": "Kjøpmannsbråtet 2",
    "addressLine_2": "4358 Kleppe",
    "addressLine_3": "",
    "phone_1": "(+47) 518 87000",
    "phone_2": "",
    "email": "firmapost@fkra.no",
    "draggable": false,
    "visible": true
  },
  {
    "id": "13",
    "position": { "lat": 52.340090, "lng": 16.794881},
    "country": "Poland",
    "company": "CONTEC sp. z.o.o.",
    "addressLine_1": "ul. Lipowa 7",
    "addressLine_2": "62-052 Komorniki",
    "addressLine_3": "",
    "phone_1": "(+48) 61810 8350",
    "phone_2": "(+48) 61810 8445",
    "email": "biuro@contec.net.pl",
    "draggable": false,
    "visible": true
  },
  {
    "id": "14",
    "position": { "lat": 51.813013, "lng": 18.053163},
    "country": "Poland",
    "company": "FERMO",
    "addressLine_1": "Piotrów 18",
    "addressLine_2": "62-814 Blizanów/k. Kalisza",
    "addressLine_3": "",
    "phone_1": "(+48) 62 596 9000",
    "phone_2": "(+48) 62 590 3796",
    "email": "sklep@fermo.pl",
    "draggable": false,
    "visible": true
  },
  {
    "id": "15",
    "position": { "lat": 52.083703, "lng": 21.029678},
    "country": "Poland",
    "company": "DACPOL Co. Ltd.",
    "addressLine_1": "ul. Puławska 34",
    "addressLine_2": "05-500 Piaseczno",
    "addressLine_3": "",
    "phone_1": "(+48) 2270 35230",
    "phone_2": "(+48) 2270 35101",
    "email": "dacpol@dacpol.eu",
    "draggable": false,
    "visible": true
  },
  {
    "id": "16",
    "position": { "lat": 41.814462, "lng": -0.772745},
    "country": "Spain",
    "company": "Exafan",
    "addressLine_1": "Polígono industrial Río Gállego Calle D / Nº10 San Mateo de Gállego",
    "addressLine_2": "50840 Zaragoza",
    "addressLine_3": "",
    "phone_1": "(+34) 976 694 530",
    "phone_2": "(+34) 976 690 968",
    "email": "dacpol@dacpol.eu",
    "draggable": false,
    "visible": true
  },
  {
    "id": "17",
    "position": { "lat": 45.669864, "lng": 25.640947},
    "country": "Romania",
    "company": "ADINTER COMSERV SRL.",
    "addressLine_1": "Fundatura Harmanului 8",
    "addressLine_2": "5500240 Brasov",
    "addressLine_3": "",
    "phone_1": "(+40) (0)722-249-413",
    "phone_2": "",
    "email": "emil@adinter.ro",
    "draggable": false,
    "visible": true
  },
  {
    "id": "18",
    "position": { "lat": 0, "lng": 0},
    "country": "Russian Federation",
    "company": "Euro Technic",
    "addressLine_1": "Rabochaya st., 2, 22 bl, office 301",
    "addressLine_2": "Khimki Moscow region",
    "addressLine_3": "",
    "phone_1": "007 985 289 4600",
    "phone_2": "",
    "email": "",
    "draggable": false,
    "visible": false
  },
  {
    "id": "19",
    "position": { "lat": 55.576724, "lng": 12.926661},
    "country": "Sweden",
    "company": "SensorGruppen",
    "addressLine_1": "Krossverksgatan 5E",
    "addressLine_2": "216 16 Limhamn",
    "addressLine_3": "",
    "phone_1": "(+46) (040) 933030",
    "phone_2": "",
    "email": "goran.sjonell@sensorgruppen.se",
    "draggable": false,
    "visible": true
  },
  {
    "id": "20",
    "position": { "lat": 47.152361, "lng": 7.963300},
    "country": "Switzerland",
    "company": "aniviva",
    "addressLine_1": "c/o Lumena AG Luthernau",
    "addressLine_2": "CH-6143 Ohmstal",
    "addressLine_3": "",
    "phone_1": "(+41) 41 984 0390",
    "phone_2": "",
    "email": "info@aniviva.ch",
    "draggable": false,
    "visible": true
  },
  {
    "id": "21",
    "position": { "lat": 49.802087, "lng": 30.123180},
    "country": "Ukraine",
    "company": "SBE Remix",
    "addressLine_1": "Privokzalnaya Str. 13 09112 Belaya",
    "addressLine_2": "Tserkov Kiev reg.",
    "addressLine_3": "",
    "phone_1": "(+38) 04563 99775",
    "phone_2": "(+38) 04563 99760",
    "email": "remix@remix.co.ua",
    "draggable": false,
    "visible": true
  },
  {
    "id": "22",
    "position": { "lat": 50.448718, "lng": 30.602843},
    "country": "Ukraine",
    "company": "AgroClimate Ukraine Ltd",
    "addressLine_1": "Yevgena Sverstyuka Str. 19 Office 1112",
    "addressLine_2": "02660 Kiev",
    "addressLine_3": "",
    "phone_1": "(+38) 044 451 4640",
    "phone_2": "",
    "email": "info@agroclimate.com.ua",
    "draggable": false,
    "visible": true
  },
  {
    "id": "23",
    "position": { "lat": 54.176706, "lng": -1.486451},
    "country": "United Kingdom",
    "company": "Dalton Engineering",
    "addressLine_1": "Barker Business Park Melmerby Green",
    "addressLine_2": "Road Melmerby",
    "addressLine_3": "Ripon, HG4 5NB",
    "phone_1": "+44 1845 578 325",
    "phone_2": "",
    "email": "info@daltonengineering.co.uk",
    "draggable": false,
    "visible": true
  },
  {
    "id": "24",
    "position": { "lat": 54.439279, "lng": -6.760150},
    "country": "United Kingdom",
    "company": "Positive Poultry LLP",
    "addressLine_1": "153 Derryfubble Road Dungannon Co.",
    "addressLine_2": "Tyrone",
    "addressLine_3": "Northern Ireland",
    "phone_1": "+44 2837547808",
    "phone_2": "",
    "email": "david@positivepoultry.com",
    "draggable": false,
    "visible": true
  },
  {
    "id": "25",
    "position": { "lat": 30.093349, "lng": 31.314713},
    "country": "Egypt",
    "company": "Al Effat Trading",
    "addressLine_1": "25 Quabba St Roxy",
    "addressLine_2": "11341 Cairo",
    "addressLine_3": "",
    "phone_1": "(+202) 2258 0681",
    "phone_2": "",
    "email": "amir.effat@aleffatgroup.com",
    "draggable": false,
    "visible": true
  },
  {
    "id": "26",
    "position": { "lat": -26.104373, "lng": 28.266488},
    "country": "South Africa",
    "company": "PSA Livestock Equipment",
    "addressLine_1": "Unit 6, The Warehouse 153 Deodar",
    "addressLine_2": "Street Cnr Constantia Avenua Pomona",
    "addressLine_3": "1619 Kempton Park",
    "phone_1": "(+27) 11 708 3094",
    "phone_2": "",
    "email": "sales@ppa.co.za",
    "draggable": false,
    "visible": true
  },
  {
    "id": "27",
    "position": { "lat": 36.082269, "lng": 120.332957},
    "country": "China",
    "company": "Qingdao Defeng Electronic Technology Co. Ltd.",
    "addressLine_1": "Liaoning Road 228 Room 2112, Science information Building Shibei District",
    "addressLine_2": "Qingdao, Shangdong",
    "addressLine_3": "",
    "phone_1": "(+86) 53283828599",
    "phone_2": "",
    "email": "syb2111@163.com",
    "draggable": false,
    "visible": true
  },
  {
    "id": "28",
    "position": { "lat": 33.588671, "lng": 130.386670},
    "country": "Japan",
    "company": "SANYU KIKI CO., LTD.",
    "addressLine_1": "1-1-3 Otemon Chuou-ku Fukuoka-shi",
    "addressLine_2": "Fukuoka 810-0074",
    "addressLine_3": "",
    "phone_1": "(+81) 92 7118858",
    "phone_2": "(+81) 80 34707851",
    "email": "ichiyanagi@sanyu-kiki.co.jp",
    "draggable": false,
    "visible": true
  },
  {
    "id": "29",
    "position": { "lat": 37.153609, "lng": 127.037385},
    "country": "South Korea",
    "company": "Farmway",
    "addressLine_1": "317 Seodong Osan Cily",
    "addressLine_2": "447-200 Kyounggi",
    "addressLine_3": "",
    "phone_1": "(+82) 3137 73929",
    "phone_2": "(+82) 3137 76186",
    "email": "chpark@farmway.co.kr",
    "draggable": false,
    "visible": true
  },
  {
    "id": "30",
    "position": { "lat": 3.187255, "lng": 101.605178},
    "country": "Malysia",
    "company": "Panaron Engineering Sdn. Bhd",
    "addressLine_1": "28-2 Jln Tanjung SD 13/2",
    "addressLine_2": "52200 Kuala Lumpur",
    "addressLine_3": "",
    "phone_1": "(+60) 3-6272 8298",
    "phone_2": "(+60) 3-6272 3298",
    "email": "info@panaron.com",
    "draggable": false,
    "visible": true
  },
  {
    "id": "31",
    "position": { "lat": 36.518682, "lng": 126.566030},
    "country": "South Korea",
    "company": "ONESPRING",
    "addressLine_1": "40-3, Hongnamseo-ro 843beon-gil, Hongseong-gun, Chungcheongnam-do",
    "addressLine_2": "32210",
    "addressLine_3": "",
    "phone_1": "(+82) 041 642 3569",
    "phone_2": "(+82) 041 642 3658",
    "email": "contact@onespring.co.kr",
    "draggable": false,
    "visible": true
  },
  {
    "id": "32",
    "position": { "lat": 24.821357, "lng": 120.963314},
    "country": "Taiwan, Republic Of China",
    "company": "ALMIN Enterprise Co., Ltd",
    "addressLine_1": "No. 16-1, Ho-Hou Village Hsin-Fong",
    "addressLine_2": "Hsiang",
    "addressLine_3": "Hsin-Chu Hsien",
    "phone_1": "(+886) 3568 05879",
    "phone_2": "(+886) 3568 9818",
    "email": "almin@ms17.hinet.net",
    "draggable": false,
    "visible": true
  },
  {
    "id": "33",
    "position": { "lat": 13.643471, "lng": 100.578410},
    "country": "Thailand",
    "company": "Agrinnovate Co., Ltd.",
    "addressLine_1": "14/164 Moo.9 Poochaosamingpai Rd.",
    "addressLine_2": "Phrapradaeng",
    "addressLine_3": "10130 Samutprakarn",
    "phone_1": "+66 81 6425 140",
    "phone_2": "",
    "email": "",
    "draggable": false,
    "visible": true
  },
  {
    "id": "34",
    "position": { "lat": 13.623804, "lng": 100.538004},
    "country": "Thailand",
    "company": "Thanthai Firsttech Co., Ltd.",
    "addressLine_1": "110/97 Moo 6 Suksawat Road Bangjak",
    "addressLine_2": "Phrapradaeng",
    "addressLine_3": "10130 Samutprakarn",
    "phone_1": "+66 81 689 3469",
    "phone_2": "",
    "email": "",
    "draggable": false,
    "visible": true
  },
  {
    "id": "35",
    "position": { "lat": -33.919500, "lng": 150.716495},
    "country": "Australia",
    "company": "AFSystems",
    "addressLine_1": "1540B The Northern Road",
    "addressLine_2": "Bringelly N.S.W 2556",
    "addressLine_3": "",
    "phone_1": "(+61) 2 6760 9611",
    "phone_2": "(+61) 2 6760 9616",
    "email": "admin@afsystems.com.au",
    "draggable": false,
    "visible": true
  },
  {
    "id": "36",
    "position": { "lat": -27.577730, "lng": 153.000600},
    "country": "Australia",
    "company": "Farm Mark Pty. Ltd.",
    "addressLine_1": "Unit 2, 19 Success St Acacia Ridge",
    "addressLine_2": "4110 Queensland",
    "addressLine_3": "",
    "phone_1": "(+61) 7 3274 6372",
    "phone_2": "(+61) 7 3274 2372",
    "email": "luigi@farmmark.com.au",
    "draggable": false,
    "visible": true
  },
  {
    "id": "37",
    "position": { "lat": -37.225426, "lng": 175.591443},
    "country": "New Zealand",
    "company": "Sorensen Elektroteknik Limited",
    "addressLine_1": "Matatoki Road 233, RD 1",
    "addressLine_2": "3578 Thames",
    "addressLine_3": "",
    "phone_1": "(+64) 78681153",
    "phone_2": "",
    "email": "robyn@sorensen.co.nz",
    "draggable": false,
    "visible": true
  },
  {
    "id": "38",
    "position": { "lat": -37.817011, "lng": 175.793221},
    "country": "New Zealand",
    "company": "Real Air Solution Ltd.",
    "addressLine_1": "3 Kea St",
    "addressLine_2": "3400 Matamata",
    "addressLine_3": "",
    "phone_1": "+64 2125 96284",
    "phone_2": "",
    "email": "dave@rasltd.co.nz",
    "draggable": false,
    "visible": true
  },
  {
    "id": "39",
    "position": { "lat": 35.783658, "lng": -78.646968},
    "country": "United States Of America",
    "company": "Lulexa",
    "addressLine_1": "222 Glenwood Ave Apt. 603, Raleig",
    "addressLine_2": "NC 27603",
    "addressLine_3": "",
    "phone_1": "(+1) 984 202 9324",
    "phone_2": "",
    "email": "ms@lulexa.net",
    "draggable": false,
    "visible": true
  },
  {
    "id": "40",
    "position": { "lat": 43.765651, "lng": -80.926319},
    "country": "Canada",
    "company": "CountyLine Equipment Ltd.",
    "addressLine_1": "R.R. #1 8582 Hwy 23 North Listowel",
    "addressLine_2": "N4W 3G6 Ontario",
    "addressLine_3": "",
    "phone_1": "(+1) 519 291 5012",
    "phone_2": "(+1) 519 291 5816",
    "email": "sales@county-line.ca",
    "draggable": false,
    "visible": true
  },
  {
    "id": "41",
    "position": { "lat": 52.185715, "lng": -106.646124},
    "country": "Canada",
    "company": "Mackay Equipment Sales",
    "addressLine_1": "833 Cynthia Street Saskatoon",
    "addressLine_2": "S7L 6C2 Saskatchewan",
    "addressLine_3": "",
    "phone_1": "(+1) 6306 665 7711",
    "phone_2": "(+1) 306 664 1973",
    "email": "em@mackayequipment.com",
    "draggable": false,
    "visible": true
  },
  {
    "id": "42",
    "position": { "lat": 20.724472, "lng": -103.386190},
    "country": "Mexico",
    "company": "JAT S.A. de C.V.",
    "addressLine_1": "San Juan No. 85 Col Tepeyac",
    "addressLine_2": "Zapopan C.P. 45150 Jalisco",
    "addressLine_3": "",
    "phone_1": "(+52) 33 3633 0147",
    "phone_2": "(+52) 33 3656 6762",
    "email": "ventasweb@jat.com.mx",
    "draggable": false,
    "visible": true
  },
  {
    "id": "43",
    "position": { "lat": 22.145736, "lng": -100.956865},
    "country": "Mexico",
    "company": "Kombitec s.a de c.v.",
    "addressLine_1": "Av. Dr. Salvador Nava Mtz. Nr. 232 Col.",
    "addressLine_2": "El Paseo",
    "addressLine_3": "C.P. 78320 San Luis Potosi",
    "phone_1": "(+52) 444 8180909",
    "phone_2": "(+52) 444 8185452",
    "email": "kombitec@kombitec.com.mx",
    "draggable": false,
    "visible": true
  }
]
