[
  {
    "id": "1",
    "position": { "lat": 56.739471, "lng": 8.871149 },
    "country": "Denmark",
    "company": "dol-sensors",
    "addressLine_1": "Hedelund 4 Glyngøre",
    "addressLine_2": "7870 Roslev",
    "phone_1": "(+45) 7217 5888",
    "phone_2": "(+45) 7217 5959",
    "email": "mail@dol-sensors.com",
    "draggable": false,
    "visible": true
  },
  {
    "id": "2",
    "position": { "lat": 56.200106, "lng": 10.159627 },
    "country": "Denmark",
    "company": "dol-sensors A/S",
    "addressLine_1": "Agro Food Park 15",
    "addressLine_2": "8200 Aarhus N",
    "phone_1": "(+45) 7217 5888",
    "phone_2": "(+45) 7217 5959",
    "email": "mail@dol-sensors.com",
    "draggable": false,
    "visible": true
  },
  {
    "id": "3",
    "position": { "lat": 60.652373, "lng": 23.141764 },
    "country": "Finland",
    "company": "Triotec OY",
    "addressLine_1": "Tehtaantie",
    "addressLine_2": "SF-31500 Koski TL",
    "phone_1": "(+45) 7217 5888",
    "phone_2": "(+45) 7217 5959",
    "email": "mail@dol-sensors.com",
    "draggable": false,
    "visible": true
  },
  {
    "id": "4",
    "position": { "lat": 60.443182, "lng": 22.328859 },
    "country": "Finland",
    "company": "DAVA Foods",
    "addressLine_1": "Piispanristintie 8",
    "addressLine_2": "SF-20761 Piispanristinti",
    "phone_1": "(+45) 7217 5888",
    "phone_2": "(+45) 7217 5959",
    "email": "mail@dol-sensors.com",
    "draggable": false,
    "visible": true
  },
  {
    "id": "5",
    "position": { "lat": 47.658936, "lng": 15.895501 },
    "country": "Austria",
    "company": "Schropper GmbH",
    "addressLine_1": "Austrasse 35",
    "addressLine_2": "2640 Gloggnitz",
    "phone_1": "(+43) 266383050",
    "phone_2": "(+43) 2663830510",
    "email": "office@schropper.at",
    "draggable": false,
    "visible": true
  },
  {
    "id": "6",
    "position": { "lat": 51.300442, "lng": 5.097699 },
    "country": "Belgium",
    "company": "PVS Oost bvba",
    "addressLine_1": "Hoge Mauw 1325",
    "addressLine_2": "2370 Arendonk",
    "phone_1": "(+32) 493 100353",
    "phone_2": "",
    "email": "joost@pvs-pvs.com",
    "draggable": false,
    "visible": true
  },
  {
    "id": "7",
    "position": { "lat": 50.039910, "lng": 15.569211 },
    "country": "Czech Republic",
    "company": "AGRA-BOHEMIA a.s.",
    "addressLine_1": "Hradecká 1383",
    "addressLine_2": "CZ-53501 Prelouc",
    "phone_1": "(+420) 466 765 111",
    "phone_2": "(+420) 466 672 203",
    "email": "info@agra-bohemia.cz",
    "draggable": false,
    "visible": true
  },
  {
    "id": "8",
    "position": { "lat": 49.488722, "lng": 14.545576 },
    "country": "Czech Republic",
    "company": "FARMTEC a.s.",
    "addressLine_1": "Jistebnice cp. 326",
    "addressLine_2": "391 33 Jistebnice",
    "phone_1": "(+420) 381 208 211",
    "phone_2": "(+420) 381 208 212",
    "email": "farmtec@farmtec.cz",
    "draggable": false,
    "visible": true
  }
]
